{
"type": "FeatureCollection",
"name": "Public_bike_pumps",
"crs": { "type": "name", "properties": { "name": "urn:ogc:def:crs:OGC:1.3:CRS84" } },
"features": [
{ "type": "Feature", "properties": { "OBJECTID": 1, "NAME": "Temple Quay - Temple Meads", "TYPE_": "On street bike pump", "MAINTAINED": "Maintained by GVA" }, "geometry": { "type": "Point", "coordinates": [ -2.581775819980264, 51.450738022308805 ] } },
{ "type": "Feature", "properties": { "OBJECTID": 2, "NAME": "Bristol & Bath Science Park", "TYPE_": "On street bike pump", "MAINTAINED": "Maintained by Bristol & Bath Science Park http://www.bbsp.co.uk/" }, "geometry": { "type": "Point", "coordinates": [ -2.478462838120299, 51.501230015019502 ] } },
{ "type": "Feature", "properties": { "OBJECTID": 3, "NAME": "Bristol & Bath Science Park ", "TYPE_": "Bike Tool Station", "MAINTAINED": "Maintained by Bristol & Bath Science Park http://www.bbsp.co.uk/" }, "geometry": { "type": "Point", "coordinates": [ -2.478323838079896, 51.500679014139024 ] } },
{ "type": "Feature", "properties": { "OBJECTID": 4, "NAME": "The Mall, Cribbs Causeway (2 of 2)", "TYPE_": "On street bike pump", "MAINTAINED": "Maintained by The Mall https://www.mallcribbs.com/" }, "geometry": { "type": "Point", "coordinates": [ -2.595991843577887, 51.52463201752753 ] } },
{ "type": "Feature", "properties": { "OBJECTID": 5, "NAME": "The Mall, Cribbs Causeway (1 of 2)", "TYPE_": "On street bike pump", "MAINTAINED": "Maintained by The Mall https://www.mallcribbs.com/" }, "geometry": { "type": "Point", "coordinates": [ -2.596131837342817, 51.526328021578486 ] } },
{ "type": "Feature", "properties": { "OBJECTID": 6, "NAME": "UWE - Bower Ashton Campus", "TYPE_": "Bike Pump & Tool Station", "MAINTAINED": "Maintained by UWE http://www.uwe.ac.uk" }, "geometry": { "type": "Point", "coordinates": [ -2.631746828517941, 51.44326603567486 ] } },
{ "type": "Feature", "properties": { "OBJECTID": 7, "NAME": "Cheswick Village", "TYPE_": "On street bike pump", "MAINTAINED": "Maintained by UWE - contact betterbybike@bristol.gov.uk\n" }, "geometry": { "type": "Point", "coordinates": [ -2.559057834897038, 51.496942016490323 ] } },
{ "type": "Feature", "properties": { "OBJECTID": 8, "NAME": "Clifton Down Shopping Centre", "TYPE_": "On street bike pump", "MAINTAINED": "Maintained by Clifton Down Shopping Centre - http://www.cliftondownsc.com" }, "geometry": { "type": "Point", "coordinates": [ -2.609756833876934, 51.464449016313544 ] } },
{ "type": "Feature", "properties": { "OBJECTID": 9, "NAME": "M Shed", "TYPE_": "On street bike pump", "MAINTAINED": "Maintained by MShed Museum http://mshed.org/" }, "geometry": { "type": "Point", "coordinates": [ -2.59682883097939, 51.448003018499463 ] } },
{ "type": "Feature", "properties": { "OBJECTID": 10, "NAME": "Ashton Court - Mountain Bike Hire / Golf Centre", "TYPE_": "On street bike pump", "MAINTAINED": "Maintained by Pedal Progression - MTB hire shop http://www.pedalprogression.com/" }, "geometry": { "type": "Point", "coordinates": [ -2.643820829780144, 51.451373016916051 ] } },
{ "type": "Feature", "properties": { "OBJECTID": 11, "NAME": "We The Curious", "TYPE_": "On street bike pump", "MAINTAINED": "Maintained by We The Curious https://www.wethecurious.org/. Contact betterbybike@bristol.gov.uk" }, "geometry": { "type": "Point", "coordinates": [ -2.599840822489662, 51.450353016457221 ] } },
{ "type": "Feature", "properties": { "OBJECTID": 12, "NAME": "Warmley Station", "TYPE_": "On street bike pump", "MAINTAINED": "Maintained by Webbs of Warmley http://webbsofwarmley.com/" }, "geometry": { "type": "Point", "coordinates": [ -2.474873827873773, 51.459830018207704 ] } },
{ "type": "Feature", "properties": { "OBJECTID": 13, "NAME": "Avon Valley Railway in Bitton", "TYPE_": "On street bike pump", "MAINTAINED": "Maintained by Avon Valley Railway http://www.avonvalleyrailway.org/" }, "geometry": { "type": "Point", "coordinates": [ -2.476461827075725, 51.430762019954123 ] } },
{ "type": "Feature", "properties": { "OBJECTID": 14, "NAME": "Haywood Village", "TYPE_": "On street bike pump", "MAINTAINED": "www.betterbybike.info/bikepumps" }, "geometry": { "type": "Point", "coordinates": [ -2.948841837560032, 51.333212634833657 ] } },
{ "type": "Feature", "properties": { "OBJECTID": 15, "NAME": "Nailsea & Backwell Station", "TYPE_": "On street bike pump", "MAINTAINED": "Maintained by North Somerset Council - contact betterbybike@bristol.gov.uk \n" }, "geometry": { "type": "Point", "coordinates": [ -2.750653415933491, 51.419703624985061 ] } },
{ "type": "Feature", "properties": { "OBJECTID": 16, "NAME": "Regent Street - Weston Super Mare", "TYPE_": "On street bike pump", "MAINTAINED": "Maintained by North Somerset Council" }, "geometry": { "type": "Point", "coordinates": [ -2.97803503690112, 51.347585523320291 ] } },
{ "type": "Feature", "properties": { "OBJECTID": 17, "NAME": "Worle Railway Station", "TYPE_": "On street bike pump", "MAINTAINED": "Maintained by North Somerset Council contact betterbybike@bristol.gov.uk" }, "geometry": { "type": "Point", "coordinates": [ -2.909629833411016, 51.358030014921631 ] } },
{ "type": "Feature", "properties": { "OBJECTID": 18, "NAME": "Uphill (Wharf café)", "TYPE_": "On street bike pump", "MAINTAINED": "Maintained by North Somerset Council - contact betterbybike@bristol.gov.uk " }, "geometry": { "type": "Point", "coordinates": [ -2.984865340266038, 51.320825921321394 ] } },
{ "type": "Feature", "properties": { "OBJECTID": 19, "NAME": "Weston Station", "TYPE_": "On street bike pump", "MAINTAINED": "Maintained by North Somerset Council - contact betterbybike@bristol.gov.uk" }, "geometry": { "type": "Point", "coordinates": [ -2.972117728217357, 51.344513623231322 ] } },
{ "type": "Feature", "properties": { "OBJECTID": 20, "NAME": "Yatton Station ", "TYPE_": "On street bike pump", "MAINTAINED": "Maintained by North Somerset Council - contact betterbybike@bristol.gov.uk" }, "geometry": { "type": "Point", "coordinates": [ -2.827118638723229, 51.390904420505883 ] } },
{ "type": "Feature", "properties": { "OBJECTID": 21, "NAME": "Locking Parklands", "TYPE_": "On street bike pumps ", "MAINTAINED": "Maintained by North Somerset Council - contact betterbybike@bristol.gov.uk" }, "geometry": { "type": "Point", "coordinates": [ -2.907201449113076, 51.335132629527131 ] } },
{ "type": "Feature", "properties": { "OBJECTID": 22, "NAME": "The Big Worle", "TYPE_": "Bike Tool Station", "MAINTAINED": "Maintained by The Big Worle - info@bigworle.org.uk " }, "geometry": { "type": "Point", "coordinates": [ -2.918196352138668, 51.360258322547772 ] } },
{ "type": "Feature", "properties": { "OBJECTID": 23, "NAME": "UWE - Frenchay Campus ", "TYPE_": "Bike Pump & Tool Station", "MAINTAINED": "Maintained by UWE http://www.uwe.ac.uk" }, "geometry": { "type": "Point", "coordinates": [ -2.546939842047574, 51.50039000396292 ] } },
{ "type": "Feature", "properties": { "OBJECTID": 24, "NAME": "UWE - Frenchay Campus ", "TYPE_": "Bike Pump & Tool Station", "MAINTAINED": "Maintained by UWE http://www.uwe.ac.uk" }, "geometry": { "type": "Point", "coordinates": [ -2.549039840066157, 51.501140003400316 ] } },
{ "type": "Feature", "properties": { "OBJECTID": 25, "NAME": "UWE - Frenchay Campus", "TYPE_": "Bike Pump & Tool Station", "MAINTAINED": "Maintained by UWE http://www.uwe.ac.uk" }, "geometry": { "type": "Point", "coordinates": [ -2.547679836949665, 51.503880012693365 ] } },
{ "type": "Feature", "properties": { "OBJECTID": 26, "NAME": "UWE - Glenside ", "TYPE_": "Bike Pump & Tool Station", "MAINTAINED": "Maintained by UWE http://www.uwe.ac.uk" }, "geometry": { "type": "Point", "coordinates": [ -2.544619828058047, 51.484720020142532 ] } }
]
}
